City_ID,City,Country,Max Temp,Description,Lat,Lng,Humidity,Cloudiness,Wind Speed,Date,Hotel Name
0,Arraial Do Cabo,BR,71.56,broken clouds,-22.9661,-42.0278,88,75,9.22,2022-07-20 21:33:27,
1,Kapaa,US,82.72,few clouds,22.0752,-159.319,72,20,17.27,2022-07-20 21:32:15,
9,Parli,IN,76.39,overcast clouds,18.8486,76.5297,82,100,10.45,2022-07-20 21:34:54,
14,Abeche,TD,74.08,light rain,13.8292,20.8324,74,100,15.19,2022-07-20 21:34:55,
16,Nikolskoye,RU,67.87,overcast clouds,59.7035,30.7861,65,100,9.51,2022-07-20 21:28:30,
19,Anqing,CN,78.33,overcast clouds,30.5092,117.0506,96,100,3.89,2022-07-20 21:34:56,
20,Hamza,UZ,80.55,clear sky,40.4264,71.4956,17,0,1.86,2022-07-20 21:34:56,
22,Bengkulu,ID,75.58,broken clouds,-3.8004,102.2655,91,64,3.65,2022-07-20 21:34:57,
23,Tautira,PF,76.42,clear sky,-17.7333,-149.15,72,0,9.93,2022-07-20 21:34:57,
24,Faanui,PF,77.99,clear sky,-16.4833,-151.75,65,0,9.55,2022-07-20 21:33:48,
26,Fortuna,US,67.86,scattered clouds,40.5982,-124.1573,69,36,7.25,2022-07-20 21:30:55,
27,Butaritari,KI,81.28,light rain,3.0707,172.7902,78,70,7.76,2022-07-20 21:33:26,
28,Bandarbeyla,SO,74.05,broken clouds,9.4942,50.8122,86,61,27.16,2022-07-20 21:34:58,
34,Cap Malheureux,MU,65.46,overcast clouds,-19.9842,57.6142,74,92,5.99,2022-07-20 21:35:00,
36,Katobu,ID,73.8,few clouds,-4.9408,122.5276,96,15,4.25,2022-07-20 21:31:05,
40,Hobyo,SO,75.29,scattered clouds,5.3505,48.5268,80,31,25.41,2022-07-20 21:35:01,
42,Isangel,VU,80.71,scattered clouds,-19.55,169.2667,89,40,4.61,2022-07-20 21:34:10,
47,Hithadhoo,MV,80.94,overcast clouds,-0.6,73.0833,69,100,2.84,2022-07-20 21:30:56,
52,Beira,MZ,68.09,clear sky,-19.8436,34.8389,94,0,5.75,2022-07-20 21:36:04,
54,Ambilobe,MG,70.23,few clouds,-13.2,49.05,64,18,9.48,2022-07-20 21:36:05,
58,Asau,RO,70.72,few clouds,46.4333,26.4,61,19,5.55,2022-07-20 21:32:06,
60,Sao Filipe,CV,76.51,broken clouds,14.8961,-24.4956,88,75,5.82,2022-07-20 21:33:30,
61,Mahebourg,MU,68.29,light intensity shower rain,-20.4081,57.7,83,75,24.16,2022-07-20 21:36:06,
62,Dutse,NG,73.27,overcast clouds,11.7594,9.3392,78,100,1.63,2022-07-20 21:36:07,
63,Rikitea,PF,73.35,clear sky,-23.1203,-134.9692,75,0,3.98,2022-07-20 21:30:56,
71,Pacific Grove,US,80.24,few clouds,36.6177,-121.9166,80,20,11.5,2022-07-20 21:33:22,
76,Anshun,CN,65.17,overcast clouds,26.25,105.9333,99,99,5.41,2022-07-20 21:36:10,
78,Neiafu,TO,79.48,scattered clouds,-18.65,-173.9833,73,40,9.22,2022-07-20 21:36:10,
80,Atambua,ID,69.73,overcast clouds,-9.1061,124.8925,90,100,4.7,2022-07-20 21:36:11,
84,Atuona,PF,77.74,clear sky,-9.8,-139.0333,74,8,15.12,2022-07-20 21:30:49,
85,Nsukka,NG,68.72,overcast clouds,6.8561,7.3927,94,100,5.57,2022-07-20 21:36:12,
89,Tessalit,ML,75.7,overcast clouds,20.1986,1.0114,70,99,12.57,2022-07-20 21:37:14,
91,Lashio,MM,69.04,overcast clouds,22.9333,97.75,100,99,1.28,2022-07-20 21:37:15,
92,Vinh,VN,77.47,broken clouds,18.6667,105.6667,90,78,0.47,2022-07-20 21:37:15,
93,Yellowknife,CA,68.52,broken clouds,62.456,-114.3525,49,75,10.36,2022-07-20 21:30:23,
96,Mashhad,IR,78.94,clear sky,36.297,59.6062,36,0,6.91,2022-07-20 21:37:16,
97,Cockburn Town,TC,82.22,clear sky,21.4612,-71.1419,78,1,20.07,2022-07-20 21:37:17,
98,Norman Wells,CA,75.24,broken clouds,65.282,-126.8329,31,75,6.91,2022-07-20 21:37:17,
100,Ankang,CN,70.47,clear sky,32.68,109.0172,86,0,0.69,2022-07-20 21:37:06,
102,Sao Joao Do Piaui,BR,81.03,few clouds,-8.3581,-42.2467,44,15,9.82,2022-07-20 21:37:18,
104,Luwuk,ID,75.7,scattered clouds,-0.9516,122.7875,85,38,3.0,2022-07-20 21:37:19,
106,Kutum,SD,75.13,light rain,14.2,24.6667,61,87,6.29,2022-07-20 21:33:21,
107,Georgetown,MY,80.89,few clouds,5.4112,100.3354,90,20,1.14,2022-07-20 21:27:09,
108,Carnarvon,AU,70.59,few clouds,-24.8667,113.6333,79,23,14.63,2022-07-20 21:26:06,
110,Vaini,TO,77.16,scattered clouds,-21.2,-175.2,83,40,9.22,2022-07-20 21:30:57,
111,Saint-Philippe,RE,65.79,scattered clouds,-21.3585,55.7679,78,45,13.69,2022-07-20 21:30:52,
112,Boundiali,CI,69.87,light rain,9.5217,-6.4869,98,100,4.81,2022-07-20 21:37:20,
114,Praia,CV,79.34,broken clouds,14.9215,-23.5087,78,75,8.05,2022-07-20 21:37:21,
115,Ribeira Grande,PT,73.8,few clouds,38.5167,-28.7,83,20,6.91,2022-07-20 21:37:21,
116,Sao Joao Da Barra,BR,73.49,clear sky,-21.6403,-41.0511,90,8,9.95,2022-07-20 21:37:22,
117,Kaliua,TZ,66.83,few clouds,-5.0606,31.7936,44,16,5.41,2022-07-20 21:37:22,
119,Avarua,CK,75.25,scattered clouds,-21.2078,-159.775,64,40,18.41,2022-07-20 21:30:46,
120,Jaru,BR,81.91,clear sky,-10.4389,-62.4664,34,0,3.78,2022-07-20 21:37:23,
121,Camacha,PT,69.22,broken clouds,33.0833,-16.3333,73,75,10.36,2022-07-20 21:37:23,
122,Port Moresby,PG,76.3,overcast clouds,-9.4431,147.1797,87,97,2.39,2022-07-20 21:37:24,
123,High Level,CA,71.71,scattered clouds,58.5169,-117.136,53,40,6.91,2022-07-20 21:34:35,
124,Derzhavinsk,KZ,68.81,broken clouds,51.1,66.3167,63,71,6.73,2022-07-20 21:30:49,
126,Bambous Virieux,MU,68.25,light intensity shower rain,-20.3428,57.7575,83,75,24.16,2022-07-20 21:34:30,
127,Itapuranga,BR,73.13,clear sky,-15.5622,-49.9486,29,0,1.48,2022-07-20 21:37:25,
130,Daru,PG,76.73,overcast clouds,-9.0763,143.2092,91,96,10.89,2022-07-20 21:37:25,
131,Sao Jose Da Tapera,BR,69.12,overcast clouds,-9.5583,-37.3811,96,95,6.62,2022-07-20 21:37:26,
133,Sarangani,PH,82.69,broken clouds,5.4033,125.4636,70,62,1.1,2022-07-20 21:37:26,
134,Pfarrkirchen,DE,75.69,overcast clouds,48.432,12.9381,68,100,16.62,2022-07-20 21:37:27,
136,Malinovoye Ozero,RU,72.01,overcast clouds,51.6753,79.7825,38,100,13.31,2022-07-20 21:38:27,
139,Niamey,NE,84.49,clear sky,13.5137,2.1098,61,0,3.44,2022-07-20 21:38:28,
140,Onda,ES,79.9,clear sky,39.9667,-0.25,77,0,2.53,2022-07-20 21:38:29,
144,Salgueiro,BR,70.02,broken clouds,-8.0742,-39.1192,80,62,11.56,2022-07-20 21:38:30,
145,Muros,ES,68.09,clear sky,42.7762,-9.0603,79,5,11.97,2022-07-20 21:32:06,
151,Ponta Do Sol,PT,73.71,clear sky,32.6667,-17.1,81,5,7.23,2022-07-20 21:38:32,
152,Vila Velha,BR,73.35,clear sky,-20.3297,-40.2925,82,0,9.22,2022-07-20 21:38:33,
154,Thompson,CA,66.36,broken clouds,55.7435,-97.8558,72,75,5.75,2022-07-20 21:33:20,
156,Bonthe,SL,75.22,overcast clouds,7.5264,-12.505,87,100,10.47,2022-07-20 21:38:34,
158,Ziri,SI,71.94,broken clouds,46.0422,14.1072,67,58,1.81,2022-07-20 21:38:34,
160,Ust-Omchug,RU,67.14,overcast clouds,61.15,149.6333,71,94,5.48,2022-07-20 21:38:35,
161,Geraldton,AU,66.61,overcast clouds,-28.7667,114.6,94,100,19.57,2022-07-20 21:38:35,
162,Prado,BR,70.79,clear sky,-17.3411,-39.2208,82,9,7.96,2022-07-20 21:38:35,
163,Vao,NC,73.89,overcast clouds,-22.6667,167.4833,88,98,10.2,2022-07-20 21:33:28,
165,Sechura,PE,72.63,scattered clouds,-5.5569,-80.8222,58,27,17.18,2022-07-20 21:33:22,
168,Mersing,MY,75.11,few clouds,2.4312,103.8405,100,20,4.61,2022-07-20 21:38:36,
172,Neustadt,DE,74.7,overcast clouds,49.7117,12.0872,82,100,13.96,2022-07-20 21:38:38,
174,Venezuela,VE,83.82,scattered clouds,8.0,-66.0,61,43,2.53,2022-07-20 21:38:38,
179,Loa Janan,ID,72.57,few clouds,-0.583,117.095,99,18,0.96,2022-07-20 21:39:40,
180,Qurayyat,SA,80.78,clear sky,31.3318,37.3428,36,0,13.8,2022-07-20 21:39:40,
182,Panzhihua,CN,68.31,overcast clouds,26.5851,101.7128,97,100,0.78,2022-07-20 21:39:41,
184,Guangyuan,CN,69.58,few clouds,32.442,105.823,95,12,1.54,2022-07-20 21:39:41,
186,Guerrero Negro,MX,83.34,few clouds,27.9769,-114.0611,44,14,15.99,2022-07-20 21:32:12,
188,Guozhen,CN,68.04,clear sky,34.3659,107.359,87,1,1.99,2022-07-20 21:39:43,
189,Saint-Honore,CA,78.12,broken clouds,48.5334,-71.0824,42,74,3.44,2022-07-20 21:39:43,
194,Makakilo City,US,82.72,broken clouds,21.3469,-158.0858,54,75,18.41,2022-07-20 21:39:44,
196,Arys,KZ,84.52,clear sky,42.4252,68.795,18,0,13.42,2022-07-20 21:39:44,
197,Zanjan,IR,70.05,clear sky,36.6736,48.4787,51,0,5.97,2022-07-20 21:39:45,
199,Puerto Ayora,EC,78.76,overcast clouds,-0.7393,-90.3518,100,94,8.01,2022-07-20 21:34:32,
200,Golpayegan,IR,76.37,clear sky,33.4537,50.2884,15,0,4.94,2022-07-20 21:39:46,
207,Touros,BR,75.13,broken clouds,-5.1989,-35.4608,84,82,11.16,2022-07-20 21:39:48,
208,Caravelas,BR,71.44,clear sky,-17.7125,-39.2481,77,2,6.64,2022-07-20 21:29:50,
211,Goma,CD,66.54,broken clouds,-1.6792,29.2228,62,62,1.32,2022-07-20 21:39:49,
212,Faya,SA,66.72,light rain,18.3851,42.4509,55,100,8.05,2022-07-20 21:39:50,
213,Mapiripan,CO,75.45,broken clouds,2.8892,-72.1256,92,79,5.97,2022-07-20 21:39:50,
214,Fuyang,CN,70.05,scattered clouds,32.9,115.8167,94,46,3.91,2022-07-20 21:39:50,
215,San Pedro,PH,81.63,moderate rain,14.35,121.0167,87,100,4.61,2022-07-20 21:39:51,
218,Zhifang,CN,78.78,overcast clouds,30.35,114.3167,96,100,0.67,2022-07-20 21:39:52,
223,Fribourg,CH,69.17,overcast clouds,46.8024,7.1513,83,92,3.65,2022-07-20 21:39:53,
225,Klyuchi,RU,66.4,overcast clouds,52.2667,79.1667,63,100,12.24,2022-07-20 21:39:54,
226,Waddan,LY,79.79,clear sky,29.1614,16.139,47,0,13.4,2022-07-20 21:40:54,
233,Iracoubo,GF,78.08,clear sky,5.4802,-53.2011,83,5,7.76,2022-07-20 21:40:56,
234,Nola,IT,82.31,clear sky,40.922,14.5329,64,0,0.58,2022-07-20 21:40:57,
236,Dwarka,IN,81.77,overcast clouds,22.2394,68.9678,83,92,17.18,2022-07-20 21:40:57,
237,Ahuimanu,US,83.91,light rain,21.4447,-157.8378,68,75,18.41,2022-07-20 21:40:58,
238,Tura,IN,74.23,light rain,25.5198,90.2201,97,100,5.7,2022-07-20 21:40:58,
243,Souillac,MU,68.38,light intensity shower rain,-20.5167,57.5167,83,75,24.16,2022-07-20 21:40:49,
244,Kavieng,PG,81.77,light rain,-2.5744,150.7967,79,93,11.65,2022-07-20 21:41:00,
245,Kirakira,SB,82.09,broken clouds,-10.4544,161.9205,75,77,7.4,2022-07-20 21:41:00,
246,Lorengau,PG,81.1,overcast clouds,-2.0226,147.2712,77,96,3.47,2022-07-20 21:41:01,
247,Marawi,PH,69.55,scattered clouds,7.9986,124.2928,94,47,3.24,2022-07-20 21:32:08,
249,Quatre Cocos,MU,68.11,light rain,-20.2078,57.7625,73,96,20.2,2022-07-20 21:41:02,
250,Orbetello,IT,78.82,clear sky,42.4408,11.2196,34,0,3.44,2022-07-20 21:41:02,
255,Xuddur,SO,73.36,overcast clouds,4.1213,43.8894,53,98,19.3,2022-07-20 21:41:04,
257,Birnin Kebbi,NG,82.51,overcast clouds,12.4539,4.1975,61,85,6.29,2022-07-20 21:41:04,
262,Cabedelo,BR,74.07,light rain,-6.9811,-34.8339,88,84,10.58,2022-07-20 21:41:06,
263,Sembakung,ID,72.59,overcast clouds,3.8167,117.25,99,98,2.24,2022-07-20 21:41:07,
264,Havelock,US,84.18,scattered clouds,34.8791,-76.9013,80,40,8.99,2022-07-20 21:41:07,
268,Nanakuli,US,84.15,broken clouds,21.3906,-158.1547,54,75,12.66,2022-07-20 21:41:08,
269,Torbay,CA,67.39,broken clouds,47.6666,-52.7314,78,75,18.41,2022-07-20 21:41:08,
270,Kalulushi,ZM,65.61,overcast clouds,-12.8378,28.0919,48,94,7.74,2022-07-20 21:41:09,
272,Sarti,GR,76.69,clear sky,40.1,23.9833,56,0,2.75,2022-07-20 21:41:10,
275,Karratha,AU,65.84,clear sky,-20.7377,116.8463,63,4,6.87,2022-07-20 21:33:17,
279,Bawku,GH,78.57,scattered clouds,11.0616,-0.2417,66,43,2.68,2022-07-20 21:42:12,
281,Fukue,JP,80.87,heavy intensity rain,32.6881,128.8419,92,100,18.1,2022-07-20 21:42:12,
282,Rafai,CF,67.59,scattered clouds,4.95,23.9167,98,47,1.05,2022-07-20 21:42:13,
283,Rosa Zarate,EC,81.36,overcast clouds,0.3333,-79.4667,72,89,5.55,2022-07-20 21:42:13,
284,San Cristobal,VE,78.98,scattered clouds,7.7669,-72.225,67,50,5.5,2022-07-20 21:37:28,
287,Eyl,SO,74.41,scattered clouds,7.9803,49.8164,81,34,16.4,2022-07-20 21:42:14,
289,Ierapetra,GR,76.14,clear sky,35.01,25.7353,56,0,11.01,2022-07-20 21:42:15,
290,Fairbanks,US,66.31,broken clouds,64.8378,-147.7164,58,75,8.05,2022-07-20 21:40:02,
291,Kitimat,CA,71.98,broken clouds,54.0524,-128.6534,43,81,3.78,2022-07-20 21:42:15,
293,Kudahuvadhoo,MV,80.33,heavy intensity rain,2.6708,72.8944,71,100,16.55,2022-07-20 21:42:16,
295,Alofi,NU,76.89,broken clouds,-19.0595,-169.9187,73,75,9.22,2022-07-20 21:42:16,
297,Lobito,AO,67.26,scattered clouds,-12.3481,13.5456,89,42,1.14,2022-07-20 21:42:17,
298,Zhanaozen,KZ,84.72,scattered clouds,43.3,52.8,29,45,22.3,2022-07-20 21:42:17,
300,Lermontovka,RU,67.5,few clouds,47.1453,134.3383,93,24,1.95,2022-07-20 21:40:24,
301,Lagoa,PT,71.82,clear sky,39.05,-27.9833,81,7,4.29,2022-07-20 21:34:35,
302,Micheweni,TZ,73.49,light rain,-4.9667,39.8333,81,20,13.58,2022-07-20 21:42:18,
303,Manzil Salim,TN,81.66,clear sky,35.8567,8.4765,31,1,3.76,2022-07-20 21:42:18,
304,Toktogul,KG,73.31,clear sky,41.8708,72.9402,34,0,2.48,2022-07-20 21:42:19,
305,Padang,ID,75.99,light rain,-0.9492,100.3543,85,65,3.91,2022-07-20 21:42:19,
307,Shenxian,CN,68.49,clear sky,36.2411,115.6672,97,6,4.94,2022-07-20 21:42:20,
308,Komsomolskiy,UZ,79.52,clear sky,40.4272,71.7189,34,0,9.22,2022-07-20 21:42:20,
310,Alenquer,BR,78.94,overcast clouds,-1.9417,-54.7383,78,92,3.69,2022-07-20 21:42:21,
311,Yatou,CN,71.28,broken clouds,37.15,122.3833,90,83,5.5,2022-07-20 21:42:21,
314,Amapa,BR,73.51,moderate rain,1.0,-52.0,98,63,2.3,2022-07-20 21:42:23,
317,Osmena,PH,81.07,broken clouds,10.5208,119.9258,77,80,2.37,2022-07-20 21:42:24,
318,Itarema,BR,78.08,broken clouds,-2.9248,-39.9167,75,68,13.8,2022-07-20 21:42:24,
320,Tabou,CI,75.47,overcast clouds,4.423,-7.3528,72,100,8.57,2022-07-20 21:43:25,
322,Vila,PT,68.7,clear sky,42.0304,-8.1588,62,0,5.17,2022-07-20 21:34:34,
323,Ambulu,ID,71.04,clear sky,-8.345,113.6058,90,6,3.83,2022-07-20 21:43:26,
325,Caribou,US,81.03,clear sky,46.8606,-68.012,37,0,10.36,2022-07-20 21:43:27,
326,Kahului,US,83.97,scattered clouds,20.8947,-156.47,61,40,21.85,2022-07-20 21:43:27,
327,Meulaboh,ID,75.24,overcast clouds,4.1363,96.1285,85,99,4.03,2022-07-20 21:43:27,
328,Salalah,OM,77.09,drizzle,17.0151,54.0924,94,100,5.75,2022-07-20 21:43:28,
330,Gunjur,GM,78.87,thunderstorm,13.2019,-16.7339,83,75,4.61,2022-07-20 21:43:29,
331,Sibolga,ID,75.15,broken clouds,1.7427,98.7792,86,63,3.31,2022-07-20 21:43:29,
332,Mitsamiouli,KM,75.38,clear sky,-11.3847,43.2844,69,0,8.34,2022-07-20 21:43:29,
337,Jardim,BR,76.95,clear sky,-21.4803,-56.1381,28,7,3.65,2022-07-20 21:40:59,
338,Wuwei,CN,66.65,moderate rain,37.9281,102.6414,51,83,14.67,2022-07-20 21:43:31,
339,Mangrol,IN,80.24,broken clouds,21.1167,70.1167,86,82,17.94,2022-07-20 21:43:32,
341,Kontagora,NG,74.91,light rain,10.3999,5.4695,80,98,0.4,2022-07-20 21:43:33,
343,Dongli,CN,78.78,clear sky,23.5656,116.8194,94,0,0.0,2022-07-20 21:43:33,
345,Sassandra,CI,73.53,scattered clouds,4.95,-6.0833,77,48,5.99,2022-07-20 21:43:34,
346,Ketou,BJ,71.53,overcast clouds,7.3633,2.5998,80,96,6.22,2022-07-20 21:43:34,
351,Veraval,IN,80.17,overcast clouds,20.9,70.3667,86,88,17.36,2022-07-20 21:43:36,
358,Malkangiri,IN,76.15,overcast clouds,18.35,81.9,92,100,1.7,2022-07-20 21:43:38,
359,Balingasay,PH,84.16,light rain,16.3573,119.8564,75,100,6.55,2022-07-20 21:43:38,
361,Balykshi,KZ,69.8,light intensity shower rain,47.0667,51.8667,78,75,8.95,2022-07-20 21:43:39,
364,Ivanivka,UA,71.01,broken clouds,46.7208,34.553,52,53,8.03,2022-07-20 21:43:40,
368,Adeje,ES,82.87,clear sky,28.1227,-16.726,69,0,2.3,2022-07-20 21:44:41,
369,Sabang,ID,82.65,overcast clouds,5.8933,95.3214,73,100,22.77,2022-07-20 21:44:41,
371,Tateyama,JP,79.11,scattered clouds,34.9833,139.8667,79,48,8.52,2022-07-20 21:44:42,
374,Ryde,GB,68.67,broken clouds,50.73,-1.1621,90,60,1.99,2022-07-20 21:44:43,
375,Yegorlykskaya,RU,66.56,clear sky,46.5656,40.6562,51,0,7.05,2022-07-20 21:44:43,
376,Santa Fe,AR,67.01,overcast clouds,-31.6333,-60.7,74,95,1.99,2022-07-20 21:43:50,
377,Leiyang,CN,79.16,overcast clouds,26.4024,112.8591,82,100,7.81,2022-07-20 21:44:43,
382,Sept-Iles,CA,79.32,scattered clouds,50.2001,-66.3821,42,40,18.41,2022-07-20 21:43:50,
384,Thongwa,MM,80.76,overcast clouds,16.7619,96.5278,93,100,4.38,2022-07-20 21:44:45,
385,Nioki,CD,77.38,broken clouds,-2.7167,17.6833,66,62,1.54,2022-07-20 21:44:46,
386,Cairns,AU,69.75,broken clouds,-16.9167,145.7667,85,75,8.05,2022-07-20 21:44:46,
387,Stejaru,RO,70.41,scattered clouds,44.7667,28.55,52,40,6.15,2022-07-20 21:44:46,
388,Maham,IN,80.78,overcast clouds,28.9833,76.3,82,98,7.18,2022-07-20 21:44:47,
390,Atasu,KZ,78.93,overcast clouds,48.6814,71.6433,41,96,5.86,2022-07-20 21:44:47,
391,Aleksandrov Gay,RU,69.8,scattered clouds,50.147,48.5704,42,40,7.16,2022-07-20 21:44:48,
392,Sydney Mines,CA,72.81,scattered clouds,46.2367,-60.2177,68,40,25.32,2022-07-20 21:44:48,
393,Budhlada,IN,80.38,overcast clouds,29.9333,75.5667,84,99,9.08,2022-07-20 21:44:48,
395,Mogadishu,SO,74.95,light rain,2.0371,45.3438,83,96,19.62,2022-07-20 21:44:49,
396,Maravilha,BR,67.62,clear sky,-26.7608,-53.1725,89,8,4.25,2022-07-20 21:44:49,
398,Westlock,CA,72.82,scattered clouds,54.1502,-113.8688,45,31,10.54,2022-07-20 21:44:50,
400,Samarkand,UZ,76.42,clear sky,39.6542,66.9597,53,0,9.22,2022-07-20 21:44:51,
406,Santiago Del Estero,AR,70.83,overcast clouds,-27.7951,-64.2615,47,99,7.23,2022-07-20 21:43:02,
407,Naze,JP,79.72,broken clouds,28.3667,129.4833,86,67,16.8,2022-07-20 21:44:52,
409,Chaiyaphum,TH,80.98,light rain,15.75,102.0,90,100,3.91,2022-07-20 21:44:53,
410,Deep River,CA,83.95,overcast clouds,46.1001,-77.4995,54,86,9.01,2022-07-20 21:44:53,
411,Hambantota,LK,77.34,few clouds,6.1241,81.1185,100,20,4.61,2022-07-20 21:44:54,
413,Palauig,PH,81.64,light rain,15.435,119.9045,76,99,4.83,2022-07-20 21:45:54,
414,Muskegon,US,84.06,scattered clouds,43.3,-86.1334,63,40,14.97,2022-07-20 21:44:42,
417,Sola,VU,81.27,broken clouds,-13.8833,167.55,83,75,0.0,2022-07-20 21:45:55,
418,Jalu,LY,79.03,clear sky,29.0331,21.5482,33,0,19.08,2022-07-20 21:45:56,
419,Aylesbury,GB,66.58,broken clouds,51.8167,-0.8146,88,84,1.01,2022-07-20 21:45:56,
421,Nieves,PH,78.31,overcast clouds,15.3274,120.9485,88,99,3.15,2022-07-20 21:45:57,
422,Poya,NC,74.12,overcast clouds,-21.35,165.15,90,100,5.68,2022-07-20 21:45:57,
423,Poum,NC,76.19,overcast clouds,-20.2333,164.0167,84,100,8.99,2022-07-20 21:42:09,
426,Axim,GH,73.31,broken clouds,4.8699,-2.2405,74,60,7.52,2022-07-20 21:45:58,
429,Farso,DK,71.26,scattered clouds,56.7728,9.3393,91,30,8.41,2022-07-20 21:45:59,
430,Sambava,MG,69.03,light rain,-14.2667,50.1667,83,42,13.35,2022-07-20 21:45:59,
432,Puerto Del Rosario,ES,76.75,clear sky,28.5004,-13.8627,73,9,6.91,2022-07-20 21:46:00,
433,Vila Franca Do Campo,PT,70.21,broken clouds,37.7167,-25.4333,84,53,1.77,2022-07-20 21:42:12,
435,Rudsar,IR,78.78,broken clouds,37.1376,50.288,87,55,6.26,2022-07-20 21:46:01,
436,Hasaki,JP,77.4,overcast clouds,35.7333,140.8333,79,99,7.49,2022-07-20 21:45:03,
437,Curaca,BR,75.72,overcast clouds,-8.9903,-39.9094,64,97,15.43,2022-07-20 21:46:01,
438,Awjilah,LY,78.73,clear sky,29.1081,21.2869,33,0,17.02,2022-07-20 21:46:02,
439,Balkhash,KZ,73.42,clear sky,46.844,74.9804,47,0,9.55,2022-07-20 21:46:02,
441,Ternate,ID,79.93,overcast clouds,0.8,127.4,81,100,2.44,2022-07-20 21:46:03,
444,Belmonte,BR,71.94,clear sky,-15.8631,-38.8828,80,4,8.77,2022-07-20 21:46:04,
445,Cayenne,GF,82.44,scattered clouds,4.9333,-52.3333,1,40,8.05,2022-07-20 21:46:05,
447,Noumea,NC,75.99,overcast clouds,-22.2763,166.4572,99,97,8.93,2022-07-20 21:46:06,
449,Merke,KZ,73.6,clear sky,42.8728,73.1786,24,0,4.41,2022-07-20 21:46:07,
450,Kudat,MY,77.29,few clouds,6.8837,116.8477,94,20,0.0,2022-07-20 21:46:08,
451,Inuvik,CA,66.96,broken clouds,68.3499,-133.7218,50,75,6.91,2022-07-20 21:46:08,
452,Srandakan,ID,75.85,overcast clouds,-7.9386,110.2506,83,100,5.66,2022-07-20 21:46:09,
453,North Bend,US,77.23,overcast clouds,43.4065,-124.2243,86,100,12.66,2022-07-20 21:44:42,
454,Vanimo,PG,76.42,overcast clouds,-2.6741,141.3028,88,100,3.49,2022-07-20 21:46:09,
456,Kassala,SD,73.74,overcast clouds,15.451,36.4,82,100,18.25,2022-07-20 21:46:10,
459,Ereymentau,KZ,65.43,light rain,51.6199,73.1033,83,97,10.89,2022-07-20 21:46:11,
460,Sorong,ID,76.89,overcast clouds,-0.8833,131.25,88,91,10.49,2022-07-20 21:47:11,
462,Sao Felix Do Xingu,BR,80.4,scattered clouds,-6.6447,-51.995,43,34,0.6,2022-07-20 21:47:12,
463,Dingle,PH,76.77,broken clouds,10.9995,122.6711,89,80,1.48,2022-07-20 21:42:15,
464,Faridpur,BD,79.92,overcast clouds,23.6,89.8333,89,100,6.69,2022-07-20 21:47:12,
465,Bathsheba,BB,84.81,scattered clouds,13.2167,-59.5167,95,40,16.11,2022-07-20 21:47:13,
471,Khandbari,NP,72.64,overcast clouds,27.3747,87.2039,89,100,0.58,2022-07-20 21:47:15,
472,Tahe,CN,65.12,overcast clouds,52.3333,124.7333,85,95,2.44,2022-07-20 21:47:15,
473,Korla,CN,66.92,clear sky,41.7597,86.1469,50,0,2.46,2022-07-20 21:47:16,
474,Catuday,PH,81.95,overcast clouds,16.2923,119.8062,77,100,6.62,2022-07-20 21:47:16,
476,Lakshmipur,BD,81.12,overcast clouds,22.95,90.8333,86,98,7.56,2022-07-20 21:47:17,
482,Awbari,LY,83.82,clear sky,26.5921,12.7805,20,0,5.59,2022-07-20 21:47:18,
483,Zalantun,CN,70.92,clear sky,48.0,122.7167,79,0,3.09,2022-07-20 21:47:19,
484,Lloret De Mar,ES,81.9,clear sky,41.6999,2.8457,71,0,5.01,2022-07-20 21:47:19,
488,Mentougou,CN,72.54,clear sky,39.9392,116.0917,79,5,1.97,2022-07-20 21:47:20,
489,Beyneu,KZ,82.96,overcast clouds,45.3167,55.2,33,88,14.79,2022-07-20 21:47:21,
490,Shelburne,CA,82.85,light rain,44.0787,-80.2041,55,100,20.36,2022-07-20 21:47:21,
491,Biak,ID,74.71,scattered clouds,-0.9131,122.8766,85,37,3.47,2022-07-20 21:47:22,
492,Boyolangu,ID,72.81,overcast clouds,-8.1181,111.8935,91,85,5.48,2022-07-20 21:47:22,
493,Kavaratti,IN,81.05,moderate rain,10.5669,72.642,79,100,19.33,2022-07-20 21:46:18,
494,Cabinda,AO,72.03,overcast clouds,-5.55,12.2,84,96,6.44,2022-07-20 21:47:22,
496,Pervomaysk,UA,67.15,broken clouds,48.0443,30.8507,66,72,8.88,2022-07-20 21:47:23,
498,Pitimbu,BR,73.99,overcast clouds,-7.4706,-34.8086,88,91,11.12,2022-07-20 21:47:23,
502,Fort Nelson,CA,74.79,scattered clouds,58.8053,-122.7002,33,40,2.3,2022-07-20 21:45:29,
503,Huarmey,PE,65.89,clear sky,-10.0681,-78.1522,75,0,10.49,2022-07-20 21:47:25,
505,Korhogo,CI,70.27,overcast clouds,9.45,-5.6333,95,98,4.92,2022-07-20 21:47:26,
507,Shimoda,JP,79.11,overcast clouds,34.6667,138.95,82,95,7.49,2022-07-20 21:47:26,
510,Bairiki,KI,80.6,light intensity shower rain,1.3292,172.9752,83,75,5.75,2022-07-20 21:43:35,
511,Kalemie,CD,71.04,clear sky,-5.9475,29.1947,53,0,1.34,2022-07-20 21:48:28,
513,Formosa Do Rio Preto,BR,73.47,clear sky,-11.0483,-45.1931,30,1,4.05,2022-07-20 21:48:28,
518,Pemangkat,ID,78.06,few clouds,1.1667,108.9667,88,15,4.21,2022-07-20 21:48:30,
519,Epe,NG,73.22,overcast clouds,6.5841,3.9834,80,85,6.02,2022-07-20 21:48:30,
521,Namatanai,PG,81.09,overcast clouds,-3.6667,152.4333,74,94,6.13,2022-07-20 21:48:31,
523,Gashua,NG,78.55,overcast clouds,12.871,11.0482,71,100,7.63,2022-07-20 21:48:32,
524,Sapele,NG,73.08,overcast clouds,5.8941,5.6767,82,92,3.49,2022-07-20 21:48:32,
525,Matara,LK,77.85,overcast clouds,5.9485,80.5353,87,91,14.14,2022-07-20 21:48:32,
527,Buala,SB,81.61,overcast clouds,-8.145,159.5921,77,100,6.8,2022-07-20 21:48:33,
530,Havre-Saint-Pierre,CA,75.56,overcast clouds,50.2334,-63.5986,60,100,11.5,2022-07-20 21:48:34,
531,Teseney,ER,72.34,overcast clouds,15.11,36.6575,84,100,16.6,2022-07-20 21:48:34,
537,Muli,MV,80.44,light rain,2.9167,73.5667,71,100,15.35,2022-07-20 21:48:37,
540,Zeya,RU,65.01,overcast clouds,53.75,127.2667,78,88,1.34,2022-07-20 21:48:38,
541,Tambilil,PH,78.22,broken clouds,5.9622,124.6697,83,56,3.51,2022-07-20 21:48:38,
542,Niono,ML,78.85,light rain,14.2526,-5.993,77,100,5.46,2022-07-20 21:48:38,
544,Durango,MX,84.0,broken clouds,24.8333,-104.8333,26,58,2.37,2022-07-20 21:48:26,
545,Gouyave,GD,79.57,scattered clouds,12.1646,-61.7296,83,40,8.05,2022-07-20 21:48:39,
547,Palu,ID,74.61,clear sky,-0.8917,119.8707,90,7,3.27,2022-07-20 21:48:40,
548,Soyo,AO,70.18,scattered clouds,-6.1349,12.3689,89,47,6.82,2022-07-20 21:48:40,
550,Calabozo,VE,82.09,broken clouds,8.9242,-67.4293,77,79,2.3,2022-07-20 21:48:41,
551,Margate,GB,68.88,scattered clouds,51.3813,1.3862,76,25,3.0,2022-07-20 21:48:41,
553,Shenjiamen,CN,78.49,broken clouds,29.9576,122.298,94,55,5.03,2022-07-20 21:48:42,
554,Yinchuan,CN,72.37,scattered clouds,38.4681,106.2731,48,30,3.31,2022-07-20 21:48:42,
556,Angoche,MZ,68.56,clear sky,-16.2325,39.9086,76,0,2.73,2022-07-20 21:49:43,
557,Emmen,NL,68.95,moderate rain,52.7792,6.9069,84,70,1.01,2022-07-20 21:46:22,
558,Dengzhou,CN,70.5,overcast clouds,37.8086,120.7508,87,96,6.71,2022-07-20 21:49:44,
560,Iwanai,JP,68.22,broken clouds,42.9744,140.5089,85,62,3.04,2022-07-20 21:49:45,
561,Xai-Xai,MZ,66.25,clear sky,-25.0519,33.6442,79,0,8.68,2022-07-20 21:49:45,
563,Garut,ID,66.52,scattered clouds,-7.2024,107.8878,95,49,4.27,2022-07-20 21:49:46,
564,Bignona,SN,77.04,heavy intensity rain,12.8103,-16.2264,95,100,7.9,2022-07-20 21:49:46,
566,Marabba,SD,79.14,overcast clouds,12.35,32.1833,68,100,14.45,2022-07-20 21:49:47,
567,Palembang,ID,77.09,haze,-2.9167,104.7458,94,20,3.44,2022-07-20 21:46:34,
568,Trairi,BR,77.77,broken clouds,-3.2778,-39.2689,73,82,13.82,2022-07-20 21:47:08,
569,La Ronge,CA,70.02,broken clouds,55.1001,-105.2842,67,75,14.97,2022-07-20 21:45:30,
573,Qiongshan,CN,78.78,clear sky,20.0058,110.3542,94,0,4.47,2022-07-20 21:49:49,
575,Birao,CF,72.46,broken clouds,10.2849,22.7882,89,58,3.24,2022-07-20 21:49:49,
576,Villacarrillo,ES,77.79,clear sky,38.1156,-3.0848,37,0,4.59,2022-07-20 21:49:50,
577,Puri,IN,79.32,overcast clouds,19.8,85.85,77,100,7.85,2022-07-20 21:49:50,
578,Canico,PT,73.71,few clouds,32.6333,-16.85,80,20,26.46,2022-07-20 21:49:50,
582,Lhokseumawe,ID,75.99,overcast clouds,5.1801,97.1507,87,99,6.8,2022-07-20 21:49:52,
584,Jiaojiang,CN,84.99,overcast clouds,28.6803,121.4428,91,100,3.6,2022-07-20 21:49:53,
585,Muisne,EC,74.61,overcast clouds,0.6,-80.0333,83,97,10.96,2022-07-20 21:49:53,
586,Dongsheng,CN,68.36,clear sky,39.8161,109.9776,46,3,6.53,2022-07-20 21:49:53,
588,Paka,MY,78.73,overcast clouds,4.6374,103.4368,89,98,4.61,2022-07-20 21:49:54,
590,Jucurutu,BR,80.87,scattered clouds,-6.0339,-37.0203,57,29,15.7,2022-07-20 21:49:54,
593,Kuching,MY,77.22,few clouds,1.55,110.3333,94,20,2.3,2022-07-20 21:49:55,
594,Takoradi,GH,73.51,broken clouds,4.8845,-1.7554,73,55,7.18,2022-07-20 21:49:55,
595,Cruzeiro,BR,73.56,scattered clouds,-22.5761,-44.9628,92,36,2.57,2022-07-20 21:49:56,
598,Amahai,ID,77.31,broken clouds,-3.3333,128.9167,88,71,5.26,2022-07-20 21:46:42,
601,Lae,PG,77.9,overcast clouds,-6.7221,146.9847,78,88,4.16,2022-07-20 21:50:58,
603,Nouadhibou,MR,69.78,scattered clouds,20.931,-17.0347,94,40,10.36,2022-07-20 21:50:58,
604,Juruti,BR,82.4,broken clouds,-2.1522,-56.0922,66,53,3.74,2022-07-20 21:50:59,
606,Gorontalo,ID,73.4,scattered clouds,0.5412,123.0595,95,36,2.15,2022-07-20 21:50:59,
609,Odobesti,RO,71.26,scattered clouds,45.7667,27.05,46,32,9.93,2022-07-20 21:51:00,
611,Armacao De Pera,PT,84.11,clear sky,37.1026,-8.357,61,0,10.2,2022-07-20 21:51:01,
612,Bafra,TR,69.82,clear sky,41.5678,35.9069,74,0,6.62,2022-07-20 21:51:01,
617,Mareeba,AU,65.44,clear sky,-17.0,145.4333,89,7,1.79,2022-07-20 21:48:28,
618,Wanning,CN,80.62,scattered clouds,18.8003,110.3967,88,28,10.85,2022-07-20 21:51:03,
619,Los Llanos De Aridane,ES,69.55,clear sky,28.6585,-17.9182,83,9,17.27,2022-07-20 21:51:04,
623,Tonantins,BR,76.33,broken clouds,-2.8731,-67.8022,96,65,1.43,2022-07-20 21:51:05,
626,Pangoa,PE,77.14,overcast clouds,-12.1167,-73.0,69,88,1.66,2022-07-20 21:51:06,
628,Miraflores,MX,81.03,broken clouds,19.2167,-98.8083,39,80,2.89,2022-07-20 21:51:07,
629,Oussouye,SN,77.18,moderate rain,12.485,-16.5469,89,100,3.96,2022-07-20 21:51:07,
631,Herran,CO,68.2,broken clouds,7.5061,-72.4833,89,78,2.53,2022-07-20 21:51:08,
632,Tongchuan,CN,67.32,clear sky,35.0806,109.0897,76,0,1.63,2022-07-20 21:51:08,
633,San Quintin,MX,75.51,broken clouds,30.4833,-115.95,64,72,12.86,2022-07-20 21:51:09,
636,Malpe,IN,74.5,overcast clouds,13.35,74.7167,89,85,9.22,2022-07-20 21:51:10,
639,Melita,CA,74.53,few clouds,49.2681,-100.9967,50,11,17.52,2022-07-20 21:51:11,
640,Mahibadhoo,MV,80.67,overcast clouds,3.7833,72.9667,75,100,13.33,2022-07-20 21:50:49,
642,Aripuana,BR,81.54,clear sky,-9.1667,-60.6333,38,0,1.45,2022-07-20 21:51:12,
643,Catalao,BR,68.76,scattered clouds,-18.1658,-47.9464,35,26,6.06,2022-07-20 21:46:21,
644,Chauk,MM,81.0,broken clouds,20.8833,94.8167,81,84,4.83,2022-07-20 21:51:12,
645,Jalingo,NG,73.38,light rain,8.8833,11.3667,92,99,3.58,2022-07-20 21:51:12,
648,Rio Verde De Mato Grosso,BR,78.24,scattered clouds,-18.9181,-54.8442,25,37,2.26,2022-07-20 21:52:13,
649,Raga,SS,67.75,broken clouds,8.4596,25.678,96,63,3.65,2022-07-20 21:52:14,
651,Talara,PE,72.36,scattered clouds,-4.5772,-81.2719,68,40,11.5,2022-07-20 21:52:14,
652,Nenjiang,CN,70.39,clear sky,49.1833,125.2167,85,1,2.04,2022-07-20 21:52:15,
653,Katsuura,JP,78.82,broken clouds,35.1333,140.3,82,64,9.1,2022-07-20 21:52:15,
654,Tias,ES,73.08,few clouds,28.9611,-13.645,78,20,26.46,2022-07-20 21:51:47,
655,Parauna,BR,73.47,clear sky,-16.9478,-50.4486,30,4,4.27,2022-07-20 21:52:16,
658,Alihe,CN,68.41,clear sky,50.5667,123.7167,89,9,1.14,2022-07-20 21:52:16,
661,Zhoucheng,CN,69.17,few clouds,35.9122,116.3117,97,16,2.62,2022-07-20 21:52:18,
662,Bukama,CD,77.9,broken clouds,-9.2,25.85,39,83,2.06,2022-07-20 21:52:18,
664,Katiola,CI,74.03,broken clouds,8.1333,-5.1,81,81,6.26,2022-07-20 21:52:19,
665,Wittstock,DE,80.98,scattered clouds,53.1612,12.4829,42,30,7.52,2022-07-20 21:52:19,
666,Matongo,TZ,66.49,few clouds,-2.3833,34.0833,50,24,5.03,2022-07-20 21:52:20,
667,Kieta,PG,81.55,overcast clouds,-6.2167,155.6333,75,96,2.24,2022-07-20 21:49:10,
668,Inhambane,MZ,67.95,clear sky,-23.865,35.3833,84,0,6.91,2022-07-20 21:52:20,
669,Weinan,CN,69.48,clear sky,34.5036,109.5089,68,0,2.35,2022-07-20 21:52:20,
670,Shwebo,MM,78.8,overcast clouds,22.5667,95.7,87,99,3.51,2022-07-20 21:52:21,
671,Hornepayne,CA,71.67,light rain,49.2138,-84.7705,88,97,4.72,2022-07-20 21:52:21,
672,Garca,BR,70.59,clear sky,-22.2106,-49.6561,49,2,6.13,2022-07-20 21:52:21,
675,Buta,CD,69.39,overcast clouds,2.7858,24.73,99,92,1.74,2022-07-20 21:52:22,
678,Sinnamary,GF,78.06,clear sky,5.3833,-52.95,82,7,7.47,2022-07-20 21:52:23,
682,Ano Kastritsion,GR,69.26,clear sky,38.2667,21.8333,42,0,4.56,2022-07-20 21:52:25,
683,Grand Gaube,MU,68.4,light rain,-20.0064,57.6608,75,94,8.99,2022-07-20 21:52:25,
684,Pital,CO,67.05,overcast clouds,2.2665,-75.8044,89,100,4.79,2022-07-20 21:52:25,
686,Manggar,ID,80.31,overcast clouds,-2.8833,108.2667,84,90,12.39,2022-07-20 21:52:26,
